{"type":"FeatureCollection","features":[{"type": "Feature", "properties":{"name":"abunaiyo", "category":1}, "geometry": {"type": "Point", "coordinates": [137.16877,35.070785]}},{"type": "Feature", "properties": {"name":"kikendayo", "category":1}, "geometry": {"type": "Point", "coordinates": [138.089905,34.903953]}},{"type": "Feature", "properties": {"name":"kowaiyo", "category":2}, "geometry": {"type": "Point", "coordinates": [137.149951,35.103347]}},{"type": "Feature", "properties": {"name":"muridayo", "category":1}, "geometry": {"type": "Point", "coordinates": [137.151089,35.103189]}},{"type": "Feature", "properties": {"name":"tomattene", "category":3}, "geometry": {"type": "Point", "coordinates": [137.150874,35.103593]}},{"type": "Feature", "properties": {"name":"yameteyo", "category":1}, "geometry": {"type": "Point", "coordinates": [137.171052,35.07118]}},{"type": "Feature", "properties": {"name":"kaeruyo", "category":4}, "geometry": {"type": "Point", "coordinates": [137.171001,35.071196]}},{"type": "Feature", "properties": {"name":"damedayo", "category":1}, "geometry": {"type": "Point", "coordinates": [137.169757,35.073244]}},{"type": "Feature", "properties":{"name":"kaerouyo", "category":5}, "geometry": {"type": "Point", "coordinates": [137.150059,35.105972]}},{"type": "Feature", "properties": {"name":"waaa","category":2}, "geometry": {"type": "Point", "coordinates":[137.146304,35.103066]}},{"type": "Feature", "properties": {"name":"kikennano!!","category":3}, "geometry": {"type": "Point", "coordinates": [137.146239,35.102671]}},{"type": "Feature", "properties": {"name":"dameyodame","category":1}, "geometry": {"type": "Point", "coordinates": [137.146322,35.102919]}},{"type": "Feature", "properties": {"name":"yabai","category":1}, "geometry": {"type": "Point", "coordinates": [137.148771,35.100179]}},{"type": "Feature", "properties": {"name":"kikenndo5","category":5}, "geometry": {"type": "Point", "coordinates": [137.146274,35.103121]}},{"type": "Feature", "properties": {"name":"muriyo","category":1}, "geometry": {"type": "Point", "coordinates": [137.373106,34.72896]}},{"type": "Feature", "properties": {"name":"mitigamienai","category":3}, "geometry": {"type": "Point", "coordinates": [137.3732,34.728967]}}]}